base_property_id,census_year,name,business_address,number_of_patrons,latitude,longitude,clue_area
103615,2007,The Owl & The Pussycat,"Shop 2, Ground , 333 Exhibition Street MELBOURNE 3000",100,-37.80780226572104,144.96806936930756,Melbourne (CBD)
600431,2015,Underbridge Sports Bar & Cafe,Part 816 Lorimer Street PORT MELBOURNE 3207,60,-37.82204522292776,144.9309905271,Port Melbourne
101202,2017,VS Sports Bar,"Part Level 2, 206 Bourke Street MELBOURNE 3000",80,-37.81267380947152,144.96687115185,Melbourne (CBD)
105954,2018,Little Red Pocket,"Front Mezzanine , 422 Little Collins Street MELBOURNE 3000",200,-37.81590751060847,144.960326283,Melbourne (CBD)
106433,2018,Ding Dong Lounge,"Level 1, 18 Market Lane MELBOURNE 3000",300,-37.8117510903,144.96940300382883,Melbourne (CBD)
110106,2019,Metropolitan Hotel,263-267 William Street MELBOURNE 3000,300,-37.812923770050006,144.95658352206044,Melbourne (CBD)
100160,2020,Nomads Melbourne,196-200 A'Beckett Street MELBOURNE VIC 3000,200,-37.809991913454375,144.9574428265,Melbourne (CBD)
593728,2020,Waterfront Venues Melbourne,"Suite 2, Level 1 78 Newquay Promenade DOCKLANDS VIC 3008",1059,-37.8152440667,144.93958160663215,Docklands
108532,2023,Whiskey Den,"Lot 2B, Ground 27 Russell Street MELBOURNE VIC 3000",40,-37.81598739985,144.9692476162641,Melbourne (CBD)
108067,2023,Chaise Lounge,Basement 105 Queen Street MELBOURNE VIC 3000,140,-37.816154899500006,144.96081186462072,Melbourne (CBD)
105962,2023,Glamp Bar,"Shop 1, 236 Little Collins Street MELBOURNE VIC 3000",200,-37.8141314686,144.96680036332666,Melbourne (CBD)
101113,2023,Madame Brussels,Level 3 59-63 Bourke Street MELBOURNE VIC 3000,256,-37.81212342700134,144.9715655659,Melbourne (CBD)
101193,2023,Alto Event Space,Office T03 338-352 Bourke Street MELBOURNE VIC 3000,400,-37.813603510656634,144.96328859745,Melbourne (CBD)
105704,2023,Trapt Bar & Escape Rooms,"Unit 1, 377 Lonsdale Street MELBOURNE VIC 3000",331,-37.8128794732693,144.96145448655,Melbourne (CBD)
105746,2023,Hoyts,Cinema Level 3 300 Lonsdale Street MELBOURNE VIC 3000,300,-37.8109017475,144.96283887063584,Melbourne (CBD)
109714,2023,Benchwarmer,Ground 345 Victoria Street WEST MELBOURNE VIC 3003,90,-37.80546285827148,144.9499612966,West Melbourne (Residential)
109709,2023,White Bark Wine,Ground 313 Victoria Street WEST MELBOURNE VIC 3003,50,-37.80556535749169,144.95109253555,West Melbourne (Residential)
109993,2023,Hotel Pullman on The Park,Pullman Melbourne on the Park 192 Wellington Parade EAST MELBOURNE VIC 3002,280,-37.81582309525,144.9834985310669,East Melbourne
110477,2023,Crown Entertainment Complex,Crown Entertainment Complex Crown Casino 8 Whiteman Street SOUTHBANK VIC 3006,320,-37.8231615915,144.95833415319856,Southbank
110537,2023,The Boatbuilders Yard,23 South Wharf Promenade SOUTH WHARF VIC 3006,1438,-37.8243151474,144.953427152051,Southbank
103165,2023,Dreams Gentlemen's Club,288 Flinders Street MELBOURNE VIC 3000,160,-37.8180566348,144.96460797480603,Melbourne (CBD)
103952,2023,Akai Ito / Ototo,349 Flinders Lane MELBOURNE VIC 3000,120,-37.8178728705466,144.9628576858,Melbourne (CBD)
103922,2023,Garden State Hotel,95-101 Flinders Lane MELBOURNE VIC 3000,840,-37.8155271957592,144.97109866785,Melbourne (CBD)
103928,2023,Meatball & Wine Bar,Ground 135 Flinders Lane MELBOURNE VIC 3000,110,-37.81573933184235,144.97015887790002,Melbourne (CBD)
606461,2023,Batman's Hill On Collins,623 Collins Street MELBOURNE VIC 3000,1500,-37.8192924326,144.95468930417508,Melbourne (CBD)
101789,2023,Hell's Kitchen,Mezzanine 20A Centre Place MELBOURNE VIC 3000,55,-37.81660289619204,144.96559654045,Melbourne (CBD)
105318,2023,Hotel Sophia,Hotel Sophia 277-287 King Street MELBOURNE VIC 3000,116,-37.81367554097035,144.95419986245005,Melbourne (CBD)
105749,2023,Father's Office,249 Little Lonsdale Street MELBOURNE VIC 3000,338,-37.81067861705,144.965725053002,Melbourne (CBD)
110747,2023,Podium,Part Ground 501 Swanston Street MELBOURNE VIC 3000,200,-37.80693100035,144.96192497362023,Melbourne (CBD)
102714,2023,Taquito,350-352 Drummond Street CARLTON VIC 3053,100,-37.7977107399,144.969271200536,Carlton
110335,2023,Left Bank Melbourne,Part Ground 1 Southbank Boulevard SOUTHBANK VIC 3006,400,-37.82103934615,144.96286670927697,Southbank
620318,2023,Melbourne Marriott Hotel Docklands,15 Waterfront Way DOCKLANDS VIC 3008,62,-37.81372142742242,144.9391383741,Docklands
110669,2004,Grosvenor Tavern,"Basement , 25 Little Collins Street MELBOURNE 3000",230,-37.81569962584264,144.96300475180894,Melbourne (CBD)
109366,2006,Plough and Harrow Hotel,125-127 Swanston Street CARLTON 3053,400,-37.80277137275811,144.96395480388765,Carlton
103605,2007,Sen Karaoke Bar,231-233 Exhibition Street MELBOURNE 3000,120,-37.810509029672616,144.96952230092296,Melbourne (CBD)
108572,2007,Tilt,272 Russell Street MELBOURNE 3000,130,-37.81007370116682,144.96714253225628,Melbourne (CBD)
109710,2011,Barber Bar,"Ground , 315 Victoria Street WEST MELBOURNE 3003",50,-37.80556551099649,144.95104717105,West Melbourne (Residential)
616966,2011,Vodka Locka & Red Leaf Restaurant,2 Boundary Road NORTH MELBOURNE 3051,40,-37.7953162502,144.9392476268893,North Melbourne
102123,2016,Menzies Tavern Hotel,"Unit 1, Basement , 446-452 Collins Street MELBOURNE 3000",197,-37.81730587963641,144.95945271555306,Melbourne (CBD)
104376,2017,Word,14-20 Goldie Place MELBOURNE 3000,200,-37.81328635195,144.96073157987536,Melbourne (CBD)
104085,2018,Disco Bar,"Basement , 167 Franklin Street MELBOURNE 3000",200,-37.80897727672806,144.95915618785,Melbourne (CBD)
101450,2019,Dan O'Connell Hotel,223-227 Canning Street CARLTON 3053,100,-37.793030424449995,144.97338802913018,Carlton
556742,2019,Vibe Hotel,419-443 Royal Parade PARKVILLE 3052,69,-37.78289819395,144.95881538955987,Parkville
102124,2021,The Mug House,Part Ground 440 Collins Street MELBOURNE VIC 3000,80,-37.81703292415311,144.95976167600003,Melbourne (CBD)
105401,2023,Spearmint Rhino Gentlemen's Club,Gnd & Flr1 20 King Street MELBOURNE VIC 3000,660,-37.8197759733,144.9577137804946,Melbourne (CBD)
109257,2023,Young & Jacksons,Young And Jacksons Hotel 1-7 Swanston Street MELBOURNE VIC 3000,470,-37.8173559295,144.96702291591578,Melbourne (CBD)
108064,2023,The Black Rabbit,Basement 85 Queen Street MELBOURNE VIC 3000,230,-37.8164972607,144.96102193282508,Melbourne (CBD)
110666,2023,The Bank On Collins,Mezzanine 394 Collins Street MELBOURNE VIC 3000,300,-37.8166130827,144.96107938833774,Melbourne (CBD)
101154,2023,RACV City Club,501 Bourke Street MELBOURNE VIC 3000,150,-37.81588561749844,144.9595844372,Melbourne (CBD)
105963,2023,The Luwow,212 Little Collins Street MELBOURNE VIC 3000,50,-37.813901255761195,144.96715296055,Melbourne (CBD)
109413,2023,Cabinet Bar,11 Rainbow Alley MELBOURNE VIC 3000,90,-37.81417663385,144.96620165918984,Melbourne (CBD)
106560,2023,Lily Blacks,"Shop 3, 12-18 Meyers Place MELBOURNE VIC 3000",95,-37.81225381732877,144.9724843766,Melbourne (CBD)
104653,2023,Campari House,21-25 Hardware Lane MELBOURNE VIC 3000,326,-37.81409145355,144.96131410750897,Melbourne (CBD)
108986,2023,The European,Ground 161 Spring Street MELBOURNE VIC 3000,703,-37.81095112345,144.97242969410638,Melbourne (CBD)
102200,2023,Fad Gallery,Gnd & Flr1 14 Corrs Lane MELBOURNE VIC 3000,80,-37.8112296141,144.96843180726552,Melbourne (CBD)
110707,2023,Sao Bar & BBQ,"Shop A, 550 Lonsdale Street MELBOURNE VIC 3000",100,-37.81346261063083,144.95600158025002,Melbourne (CBD)
102597,2023,Baroq House,Gnd & Bmt 2 Drewery Place MELBOURNE VIC 3000,303,-37.81130312385,144.9639702580742,Melbourne (CBD)
109314,2023,Miscellania,Level 2 & Roof 401 Swanston Street MELBOURNE VIC 3000,290,-37.8090429901,144.96321775777238,Melbourne (CBD)
108118,2023,BRICK LANE SHED,Stall P1-3 Shed M Queen Victoria Market 50 Peel Street MELBOURNE VIC 3000,85,-37.807832574221266,144.9576272223,Melbourne (CBD)
109493,2023,ReWine,460 Queen Street MELBOURNE VIC 3000,38,-37.80786989635,144.9584857015114,Melbourne (CBD)
106186,2023,Green Man's Arms,414-422 Lygon Street CARLTON VIC 3053,120,-37.79694533648168,144.96781234675,Carlton
106944,2023,Al Dente Sapori,Part 161-163 Nicholson Street CARLTON VIC 3053,12,-37.79638866855,144.97480119085986,Carlton
103276,2023,The Last Jar,Royal Artillery Hotel 614-616 Elizabeth Street MELBOURNE VIC 3000,250,-37.8038839765,144.95890988876312,Carlton
106081,2023,The Curtin,John Curtin Hotel 27-31 Lygon Street CARLTON VIC 3053,283,-37.806199457999995,144.965698550926,Carlton
108848,2023,The Angry Dog,405-407 Spencer Street WEST MELBOURNE VIC 3003,200,-37.81089026235,144.9499485073871,West Melbourne (Residential)
110988,2023,The General Assembly,29 South Wharf Promenade SOUTH WHARF VIC 3006,625,-37.82411173505,144.9506146124694,Southbank
105763,2002,44 Bar,42-44 Lonsdale Street MELBOURNE 3000,260,-37.80914252179053,144.971074722117,Melbourne (CBD)
106239,2006,Hotel Milan,186-190 Lygon Street CARLTON 3053,540,-37.80264148995404,144.96693072583696,Carlton
102058,2010,Recorded Music Salon,Collins Street MELBOURNE 3000,110,-37.81376862299815,144.97346124155,Melbourne (CBD)
108966,2012,Vibe Savoy Hotel Melbourne,626-636 Spencer Street MELBOURNE 3000,40,-37.81777222815,144.95392973346546,Melbourne (CBD)
103172,2023,The Joint Bar,Level 1-2 35 Elizabeth Street MELBOURNE VIC 3000,329,-37.81742176045,144.96433442319747,Melbourne (CBD)
103924,2023,Jack & Bones,Basement 107 Flinders Lane MELBOURNE VIC 3000,230,-37.815606546589706,144.970834384,Melbourne (CBD)
102073,2023,Dessous,Basement 164 Flinders Lane MELBOURNE VIC 3000,161,-37.81545151804356,144.96876152725,Melbourne (CBD)
105919,2023,Bar Americano,20 Presgrave Place MELBOURNE VIC 3000,10,-37.814831977068074,144.9656017104,Melbourne (CBD)
102161,2023,Handpicked Urban Cellar Door Melbourne,8 Benson Walk MELBOURNE VIC 3000,353,-37.81363930815,144.9706863215771,Melbourne (CBD)
101165,2023,V Wine Salon,Part Rear Ground & Part Ground 673 Bourke Street MELBOURNE VIC 3000,70,-37.8172183934914,144.9541002451,Melbourne (CBD)
108068,2023,CitiClub On Queen Hotel,"Pt Gnd & Lvl 1, Level 2-7 113 Queen Street MELBOURNE VIC 3000",940,-37.81581228435,144.96063602022025,Melbourne (CBD)
108068,2023,DaHa Bar Lounge & Club,Level 15 123 Queen Street MELBOURNE VIC 3000,200,-37.81581228435,144.96063602022025,Melbourne (CBD)
108069,2023,The Turf Accountants,"Unit 1, LwrGround 131 Queen Street MELBOURNE VIC 3000",527,-37.8154953739,144.96053353722417,Melbourne (CBD)
105831,2023,Bodega Underground,"Shop 2, 47-55 Little Bourke Street MELBOURNE VIC 3000",60,-37.81102403390212,144.9711096464,Melbourne (CBD)
105716,2023,The Melbourne Mens Gallery,597-603 Lonsdale Street MELBOURNE VIC 3000,675,-37.814945781196954,144.95449168755,Melbourne (CBD)
105867,2023,Denmark House,"Suite 301, Level 3 428 Little Bourke Street MELBOURNE VIC 3000",100,-37.813924256243226,144.95972661730002,Melbourne (CBD)
105695,2023,Ferdydurke,Level 1-2 239 Lonsdale Street MELBOURNE VIC 3000,100,-37.81159432758615,144.96537788535,Melbourne (CBD)
105749,2023,Idarts Hive,243 Little Lonsdale Street MELBOURNE VIC 3000,100,-37.81067861705,144.965725053002,Melbourne (CBD)
108573,2023,Melbourne Whisky Room,Level 1 270A Russell Street MELBOURNE VIC 3000,50,-37.81011057515,144.96716401209824,Melbourne (CBD)
580091,2023,Little Lon Distilling Co,17 Casselden Place MELBOURNE VIC 3000,30,-37.809196151079576,144.97072895345,Melbourne (CBD)
105748,2023,Her Bar,"Ground & Part Level 2, 268-270 Lonsdale Street, MELBOURNE VIC 3000",40,-37.81148566819091,144.96414510925,Melbourne (CBD)
105490,2023,Pearson And Murphy's Cafe,"Part Building 1, Ground 124 La Trobe Street MELBOURNE VIC 3000",156,-37.80821791505,144.96458869234556,Melbourne (CBD)
104461,2023,the Prince Alfred Rooftop and Bar,Prince Alfred Hotel 191-197 Grattan Street CARLTON VIC 3053,492,-37.80045758588996,144.96220861044998,Carlton
106238,2023,Players On Lygon,Ground 200 Lygon Street CARLTON VIC 3053,200,-37.8024641156,144.9670957081052,Carlton
106244,2023,Vodka Temple,160-162 Lygon Street CARLTON VIC 3053,195,-37.803441274449995,144.96677026349136,Carlton
106251,2023,Lord Lygon Wine Shop & Bar,Part Ground 66 Lygon Street CARLTON VIC 3053,80,-37.80530314955,144.9665746353691,Carlton
106254,2023,Common Rooms At Trades Hall,Part Ground 54 Victoria Street CARLTON VIC 3053,174,-37.806440108077425,144.96641240315,Carlton
108876,2023,McMahons Hotel,McMahon's Hotel 573-579 Spencer Street WEST MELBOURNE VIC 3003,160,-37.80740715385,144.94698888542996,West Melbourne (Residential)
110484,2023,Novotel Melbourne South Wharf,Novotel Melbourne South Wharf Hotel 7 Convention Centre Place SOUTH WHARF VIC 3006,50,-37.8254299844,144.95231929429832,Southbank
108054,2023,Mesh,Part Ground 1-25 Whiteman Street SOUTHBANK VIC 3006,250,-37.8239807098,144.96001926803643,Southbank
628712,2023,Bar Nacional,"Tenancy 47, Ground 727 Collins Street DOCKLANDS VIC 3008",75,-37.820702787550005,144.95011811002945,Docklands
593739,2023,Igloo Cafe & St Moritz Bar,Part Ground & Pt Mezzanine 1 105 Pearl River Road DOCKLANDS VIC 3008,100,-37.81213814697328,144.9356314462,Docklands
110184,2012,The Melbourne RSL,27-0 Windsor Place MELBOURNE 3000,240,-37.81194668805,144.97249159363227,Melbourne (CBD)
103293,2007,Stork Hotel,502-504 Elizabeth Street MELBOURNE 3000,180,-37.80718226960321,144.9602753362627,Melbourne (CBD)
103964,2008,Manchester Lane,36 Manchester Lane MELBOURNE 3000,250,-37.816421623052754,144.9661997631,Melbourne (CBD)
103985,2012,Bertha Brown,"Ground , 562-564 Flinders Street MELBOURNE 3000",270,-37.820595115918415,144.95563480894998,Melbourne (CBD)
108972,2012,Pensione Hotel Melbourne,10-22 Spencer Street MELBOURNE 3000,50,-37.8205093017,144.9552446783497,Melbourne (CBD)
105852,2017,The Apartment Restaurant Club Lounge,"LwrGround , 405 Little Bourke Street MELBOURNE 3000",250,-37.814032806001194,144.9610341175,Melbourne (CBD)
108550,2017,Escape City,"Level 1, 217 Russell Street MELBOURNE 3000",100,-37.81156147555,144.96723626336993,Melbourne (CBD)
103921,2018,Papa Goose / Mary Fortune Cocktail Bar,91 Flinders Lane MELBOURNE 3000,440,-37.81541282961696,144.97121779675,Melbourne (CBD)
106037,2019,Alchemist's Refuge,"Basement , 324-328 Little Lonsdale Street MELBOURNE 3000",60,-37.8116745095178,144.9599405236,Melbourne (CBD)
103944,2021,The Mill House Bar,"Unit 1, Basement 277 Flinders Lane MELBOURNE VIC 3000",400,-37.81724060801719,144.96529756195,Melbourne (CBD)
102064,2021,Harley House,Basement 71 Collins Street MELBOURNE VIC 3000,210,-37.81434422060704,144.97134923095,Melbourne (CBD)
110401,2022,Urban Central Accommodation,Pt Ground & Levels 1-5 334-342 City Road SOUTHBANK VIC 3006,290,-37.8278377219,144.9573512903071,Southbank
101099,2023,Bond Bar,Ground 20-24 Bond Street MELBOURNE VIC 3000,500,-37.81814585805,144.9630578698032,Melbourne (CBD)
105937,2023,Civico 23,23 Bank Place MELBOURNE VIC 3000,80,-37.816395712,144.96009729851846,Melbourne (CBD)
101136,2023,Comedy Republic,Level 1-2 231 Bourke Street MELBOURNE VIC 3000,150,-37.81343594634778,144.9668412273,Melbourne (CBD)
105964,2023,Gin Palace,10 Russell Place MELBOURNE VIC 3000,150,-37.81390744936704,144.9675811687,Melbourne (CBD)
108536,2023,The Crafty Squire,115-127 Russell Street MELBOURNE VIC 3000,414,-37.81368233014109,144.96815337114998,Melbourne (CBD)
111394,2023,Bar Ampere,16 Russell Place MELBOURNE VIC 3000,60,-37.813539026856645,144.9674365318,Melbourne (CBD)
105968,2023,Magic Mountain Saloon,62-66 Little Collins Street MELBOURNE VIC 3000,285,-37.81280974337804,144.971441857,Melbourne (CBD)
108538,2023,Sky Lounge KTV,Level 1 163-165 Russell Street MELBOURNE VIC 3000,300,-37.8124662829,144.9676472887188,Melbourne (CBD)
105829,2023,Juliet Melbourne,Basement 37-41 Little Bourke Street MELBOURNE VIC 3000,100,-37.810836007199995,144.97150588717997,Melbourne (CBD)
105878,2023,Shanghai Club,"Unit 1, Ground 242 Little Bourke Street MELBOURNE VIC 3000",209,-37.81209405621503,144.96558664045,Melbourne (CBD)
105755,2023,Caretakers Cottage,Ground Sexton's Cottage Wesley Uniting Church 139-141 Little Lonsdale Street MELBOURNE VIC 3000,50,-37.80994367235,144.96817418196383,Melbourne (CBD)
105746,2023,B Lucky and Sons,"Shop 307, Level 3 300 Lonsdale Street MELBOURNE VIC 3000",200,-37.8109017475,144.96283887063584,Melbourne (CBD)
105746,2023,Diesel Bar,202 Little Lonsdale Street MELBOURNE VIC 3000,375,-37.8109017475,144.96283887063584,Melbourne (CBD)
105746,2023,Melbourne Central Lion Hotel,"Shop 303, Level 3 300 Lonsdale Street MELBOURNE VIC 3000",550,-37.8109017475,144.96283887063584,Melbourne (CBD)
105748,2023,Her Rooftop,Level 4 270 Lonsdale Street MELBOURNE VIC 3000,120,-37.81148566819091,144.96414510925,Melbourne (CBD)
105493,2023,Karaoke Box Hit Studio,52 La Trobe Street MELBOURNE VIC 3000,300,-37.80828526461921,144.96724634790002,Melbourne (CBD)
108561,2023,Pachanga,Part Ground 380 Russell Street MELBOURNE VIC 3000,170,-37.80749393235,144.96610530439278,Melbourne (CBD)
101593,2023,Hotel Lincoln,Lincoln Hotel 91 Cardigan Street CARLTON VIC 3053,154,-37.8044853162,144.96450570186147,Carlton
109822,2023,Prudence Bar,368 Victoria Street NORTH MELBOURNE VIC 3051,80,-37.80543435891152,144.95405415829998,North Melbourne
100820,2023,Henry Street Brewhouse,"Unit 5, 38 Barrett Street KENSINGTON VIC 3031",75,-37.7981034066,144.93431731836228,Kensington
110484,2023,Tessie Pearl Hotel,Shop TG05 31 Dukes Walk SOUTH WHARF VIC 3006,150,-37.8254299844,144.95231929429832,Southbank
110389,2023,The Green Room,262 City Road SOUTHBANK VIC 3006,100,-37.8259159307,144.95949664282836,Southbank
102503,2023,Botanical Hotel,169 Domain Road SOUTH YARRA VIC 3141,245,-37.83431689295,144.98169999186757,South Yarra
558180,2023,Melbourne Stadiums Limited,Marvel Stadium 740 Bourke Street DOCKLANDS VIC 3008,5000,-37.8167419748,144.94756023478496,Docklands
100514,2004,North Melbourne Football Club Social Club,33 Arden Street NORTH MELBOURNE 3051,210,-37.79888820561025,144.9413101818877,North Melbourne
108058,2007,The Bliss Lounge,"Basement , 11 Queen Street MELBOURNE 3000",210,-37.81862081553311,144.9619565192058,Melbourne (CBD)
101219,2010,Bass Lounge,"Suite 12, Basement , 108 Bourke Street MELBOURNE 3000",350,-37.811726796048845,144.96976088525,Melbourne (CBD)
107890,2011,Royal Park Hotel/Pub,399-405 Queensberry Street NORTH MELBOURNE 3051,114,-37.80378744545,144.95431461865493,North Melbourne
108456,2011,Naughtons Hotel,43-49 Royal Parade PARKVILLE 3052,350,-37.79554428575,144.95753197405145,Parkville
108052,2012,Story,"Level 1, 133 Queens Bridge Street SOUTHBANK 3006",120,-37.82526180655,144.96050441636524,Southbank
100441,2013,Railway Hotel,118-126 Ireland Street WEST MELBOURNE 3003,241,-37.80607291495,144.94210293192347,West Melbourne (Residential)
109706,2015,Jawa Bar,297 Victoria Street WEST MELBOURNE 3003,40,-37.80564242105,144.95137608599526,West Melbourne (Residential)
102102,2016,State of Grace,"Part Ground , 477 Collins Street MELBOURNE 3000",200,-37.81841762805868,144.95855671707193,Melbourne (CBD)
103947,2017,Sebel Melbourne - Flinders Lane,321 Flinders Lane MELBOURNE 3000,60,-37.81773165451008,144.96375568035,Melbourne (CBD)
106018,2019,Horse Bazaar,"Ground , 397 Little Lonsdale Street MELBOURNE 3000",158,-37.81190053745877,144.9602499735,Melbourne (CBD)
103984,2021,Ubar,8 Spencer Street MELBOURNE VIC 3000,128,-37.82071127185,144.95533640614002,Melbourne (CBD)
105828,2021,Mrs Parma's,19 Little Bourke Street MELBOURNE VIC 3000,300,-37.810742859904565,144.97199016960002,Melbourne (CBD)
105308,2021,Bar Humbug,586 Little Bourke Street MELBOURNE VIC 3000,30,-37.8153887167,144.9549686385438,Melbourne (CBD)
105384,2021,Hotel Animal,204-208 King Street MELBOURNE VIC 3000,158,-37.815211851300006,144.95548344509194,Melbourne (CBD)
105679,2021,True Colour Lounge,Part Level 1 128-130 Little Bourke Street MELBOURNE VIC 3000,170,-37.810927165145536,144.96851480934998,Melbourne (CBD)
573333,2023,Icebar Melbourne,"Tenancy 15, Atrium Federation Square 2 Swanston Street MELBOURNE VIC 3000",166,-37.817777826050005,144.96994164279243,Melbourne (CBD)
105295,2023,The Q,Restaurant 509 Flinders Lane MELBOURNE VIC 3000,150,-37.81962534015,144.9568890728645,Melbourne (CBD)
103994,2023,Insignia On Flinders,502-504 Flinders Street MELBOURNE VIC 3000,200,-37.82005688946613,144.95765644665,Melbourne (CBD)
102071,2023,RU-CO,Part UprGround 121-131 Collins Street MELBOURNE VIC 3000,400,-37.81511565165,144.96980796645528,Melbourne (CBD)
108537,2023,QT Melbourne,"Basement , Gnd & Level 1-8 & 11 133 Russell Street MELBOURNE VIC 3000",885,-37.81342912795,144.96783665800314,Melbourne (CBD)
101124,2023,Bouvardia Melbourne,Level 2 169 Bourke Street MELBOURNE VIC 3000,150,-37.812947112085325,144.9685634125,Melbourne (CBD)
101109,2023,Spleen Central,41 Bourke Street MELBOURNE VIC 3000,100,-37.81193513767982,144.9720476845,Melbourne (CBD)
101116,2023,Good Heavens,Level 2 79 Bourke Street MELBOURNE VIC 3000,400,-37.81218018337256,144.97103973560002,Melbourne (CBD)
101207,2023,Stars KTV & Lounge,Level 1-4 184-186 Bourke Street MELBOURNE VIC 3000,200,-37.81267570088254,144.96768897975,Melbourne (CBD)
104659,2023,The Mill,Ground 67 Hardware Lane MELBOURNE VIC 3000,119,-37.8132346375,144.96090810025532,Melbourne (CBD)
105691,2023,Boilermaker House,209-211 Lonsdale Street MELBOURNE VIC 3000,180,-37.81143143651185,144.96626025195002,Melbourne (CBD)
109392,2023,Mesa Verde,"Unit S13, Level 6 252 Swanston Street MELBOURNE VIC 3000",175,-37.81199286335,144.965271426409,Melbourne (CBD)
102199,2023,Berlin Bar / House of Maximon,Level 1 16-20 Corrs Lane MELBOURNE VIC 3000,300,-37.811129317600006,144.96838532430027,Melbourne (CBD)
105673,2023,Bomba Tapas Bar and Rooftop,Ground & Rooftop 103 Lonsdale Street MELBOURNE VIC 3000,145,-37.81049413885108,144.96925328869995,Melbourne (CBD)
105900,2023,LONGSONG,Level 1 40-44 Little Bourke Street MELBOURNE VIC 3000,260,-37.81059080656873,144.9711821656,Melbourne (CBD)
106017,2023,La La Land,Level 1 391 Little Lonsdale Street MELBOURNE VIC 3000,175,-37.811874044517,144.9603413046,Melbourne (CBD)
105746,2023,Party World Karaoke Bar,"Shop 301, Level 3 300 Lonsdale Street MELBOURNE VIC 3000",430,-37.8109017475,144.96283887063584,Melbourne (CBD)
109302,2023,Mui Karaoke,Level 2 258 Lonsdale Street MELBOURNE VIC 3000,243,-37.81143183285,144.9643588506305,Melbourne (CBD)
106057,2023,Troika Bar,Ground 106 Little Lonsdale Street MELBOURNE VIC 3000,60,-37.80915143474398,144.96858968255,Melbourne (CBD)
103219,2023,Workshop,Level 1 413-417 Elizabeth Street MELBOURNE VIC 3000,230,-37.80918733525,144.9605217744215,Melbourne (CBD)
106142,2023,Johnny's Green Room,Rooftop 293 Lygon Street CARLTON VIC 3053,200,-37.79838895068619,144.96704168875,Carlton
106153,2023,Wolf's Lair,Rear 331-335 Lygon Street CARLTON VIC 3053,80,-37.79751105955,144.96717190181073,Carlton
106092,2023,The Balcony Shisha Bar,Level 1 143-145 Lygon Street CARLTON VIC 3053,119,-37.80378400705,144.96609762915,Carlton
103393,2023,Joe Taylor,7 Errol Street NORTH MELBOURNE VIC 3051,30,-37.8047971288,144.94901387796543,North Melbourne
107887,2023,Bobbie Peels,Sir Robert Peel Hotel 351-359 Queensberry Street NORTH MELBOURNE VIC 3051,240,-37.8039544673,144.9559534402919,North Melbourne
109996,2023,Route 66 Bar & Grill,150-152 Wellington Parade EAST MELBOURNE VIC 3002,77,-37.81608712015,144.98483488015614,East Melbourne
110266,2023,Delaware North,Part MCG 120 Brunton Avenue EAST MELBOURNE VIC 3002,2800,-37.8200069278,144.9831879869999,East Melbourne
110326,2023,Soho Restaurant & Bar,Part Ground 4 Riverside Quay SOUTHBANK VIC 3006,200,-37.82092446995,144.96337409882022,Southbank
110477,2023,Jackpot Bar,"Shop 72, Ground 8 Whiteman Street SOUTHBANK VIC 3006",80,-37.8231615915,144.95833415319856,Southbank
110477,2023,Atrium Bar,"Shop 70, Ground 8 Whiteman Street SOUTHBANK VIC 3006",100,-37.8231615915,144.95833415319856,Southbank
110477,2023,Velvet Bar,Part Casino 8 Whiteman Street SOUTHBANK VIC 3006,200,-37.8231615915,144.95833415319856,Southbank
110484,2023,Pan Pacific Melbourne,Pan Pacific Melbourne 2 Convention Centre Place SOUTH WHARF VIC 3006,60,-37.8254299844,144.95231929429832,Southbank
110988,2023,Plus 5,37 South Wharf Promenade SOUTH WHARF VIC 3006,90,-37.82411173505,144.9506146124694,Southbank
110988,2023,Munich Brau Haus,45 South Wharf Promenade SOUTH WHARF VIC 3006,1100,-37.82411173505,144.9506146124694,Southbank
593737,2023,Urban Alley Brewery,Shop G09 12 Star Circus DOCKLANDS VIC 3008,700,-37.8132875139,144.93799833512347,Docklands
103982,2023,The Flying Angel Club,717 Flinders Street DOCKLANDS VIC 3008,200,-37.82247270025,144.9513316597974,Docklands
617402,2023,Twang Brewing,21 Melrose Street NORTH MELBOURNE VIC 3051,60,-37.79501732002552,144.9414035519,North Melbourne
108967,2007,The Batman's Hill Hotel,66-70 Spencer Street MELBOURNE 3000,1500,-37.81942775489416,144.95475962673038,Melbourne (CBD)
109317,2014,The Oxford Scholar Hotel,427-433 Swanston Street MELBOURNE 3000,486,-37.8084449187,144.96297514475876,Melbourne (CBD)
110145,2021,Pho Melbourne,170 William Street MELBOURNE VIC 3000,50,-37.8149175538,144.9582198443308,Melbourne (CBD)
102099,2023,The Whisky Boutique / Ms Collins,Part Gnd & Mezzanine 425 Collins Street MELBOURNE VIC 3000,850,-37.8175282385,144.9606526789389,Melbourne (CBD)
101238,2023,Imperial Hotel,The Imperial Hotel 2-8 Bourke Street MELBOURNE VIC 3000,894,-37.81120076789737,144.9726756216,Melbourne (CBD)
103402,2023,Townhall Hotel North Melbourne,33 Errol Street NORTH MELBOURNE VIC 3051,40,-37.80412703475,144.94879450626792,North Melbourne
109829,2023,Queen Victoria Hostel,Victoria Hotel 312-316 Victoria Street NORTH MELBOURNE VIC 3051,100,-37.8056323416,144.9557050830865,North Melbourne
108617,2023,Royce Hotel,Royce Hotel 375-385 St Kilda Road MELBOURNE VIC 3004,120,-37.8350825817,144.97554127223438,Melbourne (Remainder)
106798,2023,Ormond Collective,17 Moubray Street MELBOURNE VIC 3004,500,-37.847469445,144.98151911479584,Melbourne (Remainder)
640970,2023,Hightail,"Tenancy 40, LwrGround 18 Batmans Hill Drive DOCKLANDS VIC 3008",950,-37.8213126871,144.94982202293397,Docklands
106983,2023,Atet,"Part Shed 2, North Wharf Road DOCKLANDS VIC 3008",550,-37.819774265899994,144.9367318542416,Docklands
108591,2010,Canary Club,6 Russell Street MELBOURNE 3000,150,-37.81349217105,144.96902133155356,Melbourne (CBD)
573414,2011,Watermark Bar,"Shop 9, 800 Bourke Street DOCKLANDS 3008",300,-37.8188510501,144.9450799835413,Docklands
108568,2012,Ice Lounge & Ski Lounge,"Ground , 296-298 Russell Street MELBOURNE 3000",152,-37.809572120750005,144.96692730524177,Melbourne (CBD)
109309,2013,Rue Bebelons,267 Swanston Street MELBOURNE 3000,74,-37.81076372395,144.964048236249,Melbourne (CBD)
104665,2015,Pop,68 Hardware Lane MELBOURNE 3000,280,-37.8130703004677,144.9611061979,Melbourne (CBD)
614830,2015,Lost and Found,524 Macaulay Road KENSINGTON 3031,40,-37.79404184602849,144.9286331931,Kensington
105449,2017,Burger Theory / The Hills Rooftop / The Tuxedo Cat,293-299 La Trobe Street MELBOURNE 3000,200,-37.810814483849995,144.9605087922079,Melbourne (CBD)
106222,2017,University Hotel,"Part Ground , 272 Lygon Street CARLTON 3053",111,-37.80052682305912,144.96724408945,Carlton
101023,2018,Bennetts Lane Jazz Club,25 Bennetts Lane MELBOURNE 3000,300,-37.80889190335,144.96755702107387,Melbourne (CBD)
110385,2018,Rumour Restaurant Bar & Lounge,38 City Road SOUTHBANK 3006,100,-37.823835739,144.96191853638004,Southbank
101194,2021,Mural Hall,Part Level 6 314-336 Bourke Street MELBOURNE VIC 3000,900,-37.813447730023114,144.96382711175,Melbourne (CBD)
101230,2021,Romeo Lane,4 Crossley Street MELBOURNE VIC 3000,99,-37.81155874855,144.97136417975338,Melbourne (CBD)
106059,2021,Gami Training Centre,100 Little Lonsdale Street MELBOURNE VIC 3000,73,-37.80913718523746,144.96871967434998,Melbourne (CBD)
573333,2023,Zinc,"Tenancy 18, Zinc 2 Swanston Street MELBOURNE VIC 3000",1000,-37.817777826050005,144.96994164279243,Melbourne (CBD)
102098,2023,The Sherlock Holmes Inn,Gnd & Bmt 417 Collins Street MELBOURNE VIC 3000,131,-37.81746943542926,144.96086833885,Melbourne (CBD)
100727,2023,Mitre Tavern,Mitre Tavern 5-9 Bank Place MELBOURNE VIC 3000,300,-37.8168041117,144.96028846791666,Melbourne (CBD)
102141,2023,The Charles Dickens Tavern,Part Basement 290 Collins Street MELBOURNE VIC 3000,450,-37.81552770375,144.96434075395388,Melbourne (CBD)
109271,2023,Max Watt's,Gnd & Bmt 125 Swanston Street MELBOURNE VIC 3000,800,-37.8147224869,144.96579902757662,Melbourne (CBD)
558610,2023,The Butterfly Club,Level 1-3 256 Collins Street MELBOURNE VIC 3000,190,-37.815523727614426,144.96529077485002,Melbourne (CBD)
102161,2023,Nick & Nora's,11 Benson Walk MELBOURNE VIC 3000,476,-37.81363930815,144.9706863215771,Melbourne (CBD)
108963,2023,Mail Exchange Hotel,Part Basement 688 Bourke Street MELBOURNE VIC 3000,600,-37.8166305854,144.95359044056096,Melbourne (CBD)
109954,2023,Murmur Piano Bar,Level 1 15-19 Warburton Lane MELBOURNE VIC 3000,70,-37.81381261652099,144.9618461375,Melbourne (CBD)
109284,2023,Black Opal,191 Swanston Street MELBOURNE VIC 3000,200,-37.8130993046,144.96501083586128,Melbourne (CBD)
101212,2023,Ballers Clubhouse,Level 2-3 2 Coverlid Place MELBOURNE VIC 3000,1500,-37.81195835501776,144.9685177241,Melbourne (CBD)
101217,2023,Welcome Stranger,Ground 124-128 Bourke Street MELBOURNE VIC 3000,350,-37.81206977061173,144.9692644013,Melbourne (CBD)
101221,2023,The Elephant and Wheelbarrow,94-96 Bourke Street MELBOURNE VIC 3000,450,-37.81191580692429,144.97024358695,Melbourne (CBD)
515538,2023,Paris Cat Jazz Club,4-6 Goldie Place MELBOURNE VIC 3000,120,-37.81351796725,144.96082902837784,Melbourne (CBD)
105875,2023,Penny Blue,2 Driver Lane MELBOURNE VIC 3000,85,-37.81292588925007,144.96312748625002,Melbourne (CBD)
105694,2023,The Emerald Peacock,233 Lonsdale Street MELBOURNE VIC 3000,300,-37.81158038740586,144.96554789574998,Melbourne (CBD)
109392,2023,The Toff In Town,"Unit S3-S4, Level 2 252 Swanston Street MELBOURNE VIC 3000",342,-37.81199286335,144.965271426409,Melbourne (CBD)
102199,2023,Euro House,Ground 16-20 Corrs Lane MELBOURNE VIC 3000,200,-37.811129317600006,144.96838532430027,Melbourne (CBD)
108103,2023,Club W,Basement 420 Lonsdale Street MELBOURNE VIC 3000,100,-37.81268993125,144.95996379012394,Melbourne (CBD)
108573,2023,Whisky and Alement,Ground 270 Russell Street MELBOURNE VIC 3000,90,-37.81011057515,144.96716401209824,Melbourne (CBD)
103618,2023,Coopers Inn,"Shop 1, 242 Exhibition Street MELBOURNE VIC 3000",400,-37.809415028369145,144.9699756013,Melbourne (CBD)
104103,2023,Captain Melville,Mac's Hotel 34-38 Franklin Street MELBOURNE VIC 3000,355,-37.8075189651329,144.96162023070002,Melbourne (CBD)
108844,2023,Crowne Plaza Melbourne,Crowne Plaza 1-5 Spencer Street DOCKLANDS VIC 3008,84,-37.8226703933,144.95501736365668,Docklands
101613,2023,Clyde Hotel,377-391 Cardigan Street CARLTON VIC 3053,239,-37.797255385880234,144.9657543172,Carlton
106114,2023,Fossey's Distillery Lygon,209 Lygon Street CARLTON VIC 3053,100,-37.80041990085,144.96660123313228,Carlton
106215,2023,Carlton Yacht Club Bar,298 Lygon Street CARLTON VIC 3053,46,-37.79998581375,144.96737628730443,Carlton
108153,2023,Epocha Restaurant,Montefiore House Exhibition Mews 49 Rathdowne Street CARLTON VIC 3053,124,-37.8057719245,144.96856221768635,Carlton
110920,2023,Limerick Castle Hotel & Restaurant,Limerick Castle Hotel & Restaurant 161-163 Errol Street NORTH MELBOURNE VIC 3051,175,-37.8011579495,144.94963795699823,North Melbourne
102236,2023,The Castle Hotel,56-58 Courtney Street NORTH MELBOURNE VIC 3051,317,-37.8008983338,144.953033796439,North Melbourne
110733,2023,The Barre,100 St Kilda Road SOUTHBANK VIC 3006,300,-37.82094203724495,144.9681703081,Southbank
110380,2023,P J O'Briens Irish Pub & Side Bar,"Shop 12-16, Ground 3 Southgate Avenue SOUTHBANK VIC 3006",549,-37.8207182429,144.96630308550658,Southbank
111302,2023,Yarra Botanica,Part Southbank Promenade 2 Southgate Avenue SOUTHBANK VIC 3006,684,-37.82037813495,144.9642064725867,Southbank
110484,2023,SHOWTIME EVENT CENTRE PTY LTD,Shop FG01 20 Convention Centre Place SOUTH WHARF VIC 3006,1036,-37.8254299844,144.95231929429832,Southbank
110484,2023,Melbourne Public,11-15 Dukes Walk SOUTH WHARF VIC 3006,1000,-37.8254299844,144.95231929429832,Southbank
576023,2023,The Nixon Hotel,749 Bourke Street DOCKLANDS VIC 3008,320,-37.8193808719,144.94799200433602,Docklands
616125,2023,Flemington & Kensington RSL Club,RSL 25-27 Rankins Road KENSINGTON VIC 3031,90,-37.7893223473,144.93219500671228,Kensington
108565,2007,Hyde,312 Russell Street MELBOURNE 3000,269,-37.80932654189252,144.9668252164964,Melbourne (CBD)
103239,2015,Musicbox  - Karaoke Bar,"Ground , 547 Elizabeth Street MELBOURNE 3000",150,-37.80538135455,144.9584782220686,North Melbourne
104034,2017,Clocks At Flinders Street Station,"Shop 17,  Flinders Street MELBOURNE 3000",300,-37.8186817777,144.96577579893395,Melbourne (CBD)
101202,2017,Xiang Club,"Part Level 3, 206 Bourke Street MELBOURNE 3000",150,-37.81267380947152,144.96687115185,Melbourne (CBD)
108971,2023,Holiday Inn Melbourne On Flinders,Holiday Inn on Flinders 561-585 Flinders Lane MELBOURNE VIC 3000,100,-37.820200051650005,144.95510422847929,Melbourne (CBD)
102071,2023,Spice Market,Part LwrGround 121-131 Collins Street MELBOURNE VIC 3000,800,-37.81511565165,144.96980796645528,Melbourne (CBD)
102113,2023,Pulo Pool Parlour,Part LwrGround 546 Collins Street MELBOURNE VIC 3000,120,-37.81824450365,144.95584419736474,Melbourne (CBD)
102135,2023,Little Ramen Bar,369 Little Collins Street MELBOURNE VIC 3000,72,-37.81601648208985,144.96268877625,Melbourne (CBD)
109284,2023,Eva's Restaurant & Bar,Mezzanine 195 Swanston Street MELBOURNE VIC 3000,200,-37.8130993046,144.96501083586128,Melbourne (CBD)
102272,2023,Bard's Apothecary,24 Crossley Street MELBOURNE VIC 3000,80,-37.811383624034974,144.97120960655002,Melbourne (CBD)
105657,2023,Double Happiness Bar / New Gold Mountain,21 Liverpool Street MELBOURNE VIC 3000,100,-37.81118096195,144.97126461016583,Melbourne (CBD)
103300,2023,Chef David,"Shop 102, Level 1 458 Elizabeth Street MELBOURNE VIC 3000",189,-37.80783716475,144.96062400307895,Melbourne (CBD)
518846,2023,Leonie Upstairs,"Level 1,15-17 Lincoln Square South CARLTON VIC 3053",62,-37.80337041860672,144.9628566728,Carlton
104468,2023,University House Club,University House Building 112 230 Grattan Street PARKVILLE VIC 3010,611,-37.79677209594333,144.96120873245002,Parkville
110399,2023,Shadow Play By Peppers,107 Clarendon Street SOUTHBANK VIC 3006,50,-37.8271311269,144.9582569877917,Southbank
110380,2023,Waterslide Bar,"Restaurant 3, Mid Lvl 3 Southgate Avenue SOUTHBANK VIC 3006",200,-37.8207182429,144.96630308550658,Southbank
616160,2023,The Quiet Man Irishman Pub,The Quiet Man Hotel 265-271 Racecourse Road KENSINGTON VIC 3031,400,-37.788610998349995,144.93236542065733,Kensington
616156,2023,Bonehead Brewing,86-90 Parsons Street KENSINGTON VIC 3031,80,-37.79045306345,144.93519168685492,Kensington
109512,2005,United Kingdom Settlers Association,"Front Floor 1, 146W Toorak Road SOUTH YARRA 3141",100,-37.83764654440955,144.9843804943388,South Yarra
108983,2007,Hard Rock Cafe,1 Spring Street MELBOURNE 3000,500,-37.811995901555065,144.9729329718854,Melbourne (CBD)
103621,2010,Rydges Melbourne Hotel,"Part Ground , 174-192 Exhibition Street MELBOURNE 3000",100,-37.8112189809,144.97059788796204,Melbourne (CBD)
576967,2011,Rathdowne Tavern,184 Rathdowne Street CARLTON 3053,140,-37.79476565983802,144.97123033445,Carlton
585863,2011,The Oasis Oz Hotel,175-191 Dryburgh Street NORTH MELBOURNE 3051,390,-37.80205377559464,144.94336001515,North Melbourne
104026,2012,24 Moons,"Rear Level 2, 108-112 Flinders Street MELBOURNE 3000",195,-37.81600505948468,144.97115550425,Melbourne (CBD)
102157,2014,Massoni Wine Bar,"Shop 5, Ground , 90 Collins Street MELBOURNE 3000",112,-37.814017675275906,144.9702869013,Melbourne (CBD)
101119,2014,Levels Nightclub,"Level 1, 137-141 Bourke Street MELBOURNE 3000",400,-37.81279275577653,144.969167321,Melbourne (CBD)
103809,2017,Turf Club Hotel,1-3 Flemington Road NORTH MELBOURNE 3051,629,-37.801283117249994,144.95639469877318,North Melbourne
103810,2017,RMIT Village Melbourne,5-17 Flemington Road NORTH MELBOURNE 3051,356,-37.801435967312926,144.9558469108,North Melbourne
604125,2019,Alumbra,"Shed 9, Part  Harbour Esplanade DOCKLANDS 3008",690,-37.81648918185,144.9436688253851,Docklands
102158,2021,Indu & Mejico,86A Collins Street MELBOURNE VIC 3000,290,-37.81393676506883,144.97058439059998,Melbourne (CBD)
573333,2023,Beer De Luxe,"Tenancy 17 & 23, Lvls 1-2 Atrium Federation Square 2 Swanston Street MELBOURNE VIC 3000",1000,-37.817777826050005,144.96994164279243,Melbourne (CBD)
105399,2023,Clique Bar,Level 1 26 King Street MELBOURNE VIC 3000,222,-37.81952905265,144.95746565053372,Melbourne (CBD)
103946,2023,Miranda Tequila Bar,"Unit 1, Basement 313-315 Flinders Lane MELBOURNE VIC 3000",100,-37.81763997994896,144.96385087395,Melbourne (CBD)
103938,2023,The Adelphi Hotel,Gnd-Lvl 7 187 Flinders Lane MELBOURNE VIC 3000,80,-37.81635841773196,144.9683751885,Melbourne (CBD)
103925,2023,Father's Office Downtown,"Unit 1, Gnd & Bmt 121 Flinders Lane MELBOURNE VIC 3000",350,-37.81567232104298,144.97051356175,Melbourne (CBD)
103926,2023,GoGo Bar,Basement 125 Flinders Lane MELBOURNE VIC 3000,300,-37.81568919693426,144.97039992735,Melbourne (CBD)
101789,2023,Lustre Bar,4A Centre Place MELBOURNE VIC 3000,85,-37.81660289619204,144.96559654045,Melbourne (CBD)
100730,2023,MELBOURNE SAVAGE CLUB,The Melbourne Savage Club 12-16 Bank Place MELBOURNE VIC 3000,90,-37.81654512525,144.9605773490057,Melbourne (CBD)
105937,2023,Marrakech Bar,LwrGround 25 Bank Place MELBOURNE VIC 3000,200,-37.816395712,144.96009729851846,Melbourne (CBD)
110148,2023,The Australian Club Inc,98-110 William Street MELBOURNE VIC 3000,280,-37.816746354550006,144.95912288463865,Melbourne (CBD)
102152,2023,The George on Collins,"Shop B1, Basement 162 Collins Street MELBOURNE VIC 3000",620,-37.814502920035494,144.96784765085,Melbourne (CBD)
101154,2023,Bourke Street Green,Courtyard Ground 501 Bourke Street MELBOURNE VIC 3000,100,-37.81588561749844,144.9595844372,Melbourne (CBD)
105960,2023,The Dove Club,Level 2 318-322 Little Collins Street MELBOURNE VIC 3000,380,-37.814886608596126,144.96400961705,Melbourne (CBD)
101133,2023,Lychee Entertainment,Level 1-2 215 Bourke Street MELBOURNE VIC 3000,150,-37.8132801326,144.9672985356574,Melbourne (CBD)
105306,2023,Showgirls Bar 20,193-195 King Street MELBOURNE VIC 3000,285,-37.8156958826,144.95508140553954,Melbourne (CBD)
592048,2023,La Di Da,188-200 King Street MELBOURNE VIC 3000,458,-37.81551358122934,144.9556241679,Melbourne (CBD)
105858,2023,Holey Moley Golf Club,590-592 Little Bourke Street MELBOURNE VIC 3000,700,-37.81533849869275,144.95469881445,Melbourne (CBD)
108547,2023,Exford Hotel,199-203 Russell Street MELBOURNE VIC 3000,300,-37.81179187755,144.96734080898327,Melbourne (CBD)
109390,2023,Goldilocks,Rooftop 264 Swanston Street MELBOURNE VIC 3000,60,-37.81181061845,144.96514740335823,Melbourne (CBD)
105677,2023,Golden Nugget,Ground 117 Lonsdale Street MELBOURNE VIC 3000,250,-37.81079279084446,144.9689026007,Melbourne (CBD)
108581,2023,Heartbreaker,234A Russell Street MELBOURNE VIC 3000,166,-37.8109824535,144.96764384655324,Melbourne (CBD)
105749,2023,Strike Bowling,245-247 Little Lonsdale Street MELBOURNE VIC 3000,370,-37.81067861705,144.965725053002,Melbourne (CBD)
105746,2023,Strike Bowling Melbourne Central / Strike Escape Rooms Melbourne Central,"Shop 305, Level 3 300 Lonsdale Street MELBOURNE VIC 3000",760,-37.8109017475,144.96283887063584,Melbourne (CBD)
109302,2023,Bornga,Level 1 258 Lonsdale Street MELBOURNE VIC 3000,40,-37.81143183285,144.9643588506305,Melbourne (CBD)
109304,2023,Dom's,Level 1- 2 & Rooftop 301 Swanston Street MELBOURNE VIC 3000,250,-37.8110777883,144.96419264487724,Melbourne (CBD)
108567,2023,Jankara Karaoke,Ground 300 Russell Street MELBOURNE VIC 3000,80,-37.80951656,144.96690504910487,Melbourne (CBD)
103301,2023,Kicks,446 Elizabeth Street MELBOURNE VIC 3000,365,-37.8083080579,144.96085872234173,Melbourne (CBD)
108118,2023,Meet Sando,507 Elizabeth Street MELBOURNE VIC 3000,20,-37.807832574221266,144.9576272223,Melbourne (CBD)
106245,2023,El Giza Bar & Lounge,152-154 Lygon Street CARLTON VIC 3053,123,-37.80359331565,144.96674436844162,Carlton
102352,2023,Albion Hotel,171-173 Curzon Street NORTH MELBOURNE VIC 3051,100,-37.7988987402,144.94855064566946,North Melbourne
107481,2023,The Drunken Poet,Ground 65 Peel Street WEST MELBOURNE VIC 3003,50,-37.8066676736,144.9554972915016,West Melbourne (Residential)
110399,2023,The Cloakroom Bar,Level 46 105 Clarendon Street SOUTHBANK VIC 3006,50,-37.8271311269,144.9582569877917,Southbank
559161,2023,Belgian Beer Cafe Melbourne,5 Riverside Quay SOUTHBANK VIC 3006,638,-37.82168057084684,144.9645386201,Southbank
110477,2023,Lumia Bar,"Shop 73, Ground 8 Whiteman Street SOUTHBANK VIC 3006",140,-37.8231615915,144.95833415319856,Southbank
102117,2007,Menzies Tavern,"Part Level 1, 525 Collins Street MELBOURNE 3000",200,-37.81756404569752,144.9574852972072,Melbourne (CBD)
103818,2008,Redback Brewery Hotel,75 Flemington Road NORTH MELBOURNE 3051,650,-37.798950608050006,144.9533476439841,North Melbourne
110349,2022,Testing Ground,1-23 City Road SOUTHBANK VIC 3006,500,-37.8213758077,144.96752308838842,Southbank
108973,2022,Network Public Bar & Pizzeria,"Shop 4-5, Ground 99 Spencer Street DOCKLANDS VIC 3008",325,-37.818411730415505,144.9522268972,Docklands
105394,2023,KSR Art Bar,Level 1 62-66 King Street MELBOURNE VIC 3000,240,-37.81874468575,144.95714694640196,Melbourne (CBD)
103626,2023,European Bier Cafe,114-122 Exhibition Street MELBOURNE VIC 3000,735,-37.81286229010783,144.9711969512,Melbourne (CBD)
104659,2023,Charlie's Bar,Basement 67 Hardware Lane MELBOURNE VIC 3000,143,-37.8132346375,144.96090810025532,Melbourne (CBD)
105870,2023,Kirk's Public Bar,382 Little Bourke Street MELBOURNE VIC 3000,98,-37.8135435217,144.96132807458443,Melbourne (CBD)
635138,2023,Union Electric Bar & Rooftop Gin Garden,13 Heffernan Lane MELBOURNE VIC 3000,100,-37.8118017467,144.9665916738665,Melbourne (CBD)
108580,2023,HATS AND TATTS CITY,Level 1 246 Russell Street MELBOURNE VIC 3000,197,-37.81047428985,144.9673253507496,Melbourne (CBD)
105747,2023,SEAFOOD MINGLE,Level 1 272-282 Lonsdale Street MELBOURNE VIC 3000,50,-37.81152916515,144.96399639656,Melbourne (CBD)
105748,2023,Music Room,Level 1 270 Lonsdale Street MELBOURNE VIC 3000,70,-37.81148566819091,144.96414510925,Melbourne (CBD)
103102,2023,Ballers Clubhouse,171-175 Elgin Street CARLTON VIC 3053,200,-37.79750606065,144.96870745552718,Carlton
108235,2023,Bar Bellamy,164 Rathdowne Street CARLTON VIC 3053,47,-37.7954766408,144.97113272902246,Carlton
108856,2023,Hotel Spencer Bar & Grill,Ground 475 Spencer Street WEST MELBOURNE VIC 3003,150,-37.80956895705,144.94925101372155,West Melbourne (Residential)
111071,2010,The Press Club Restuarant & Bar Pty Ltd,68-74 Flinders Street MELBOURNE 3000,90,-37.81546171375,144.97272087713685,Melbourne (CBD)
104018,2011,Purple Emerald,"Ground , 191 Flinders Street MELBOURNE 3000",100,-37.81660267105,144.96856313955965,Melbourne (CBD)
101202,2017,Rainbow Karaoke,"Part Level 2, 206 Bourke Street MELBOURNE 3000",400,-37.81267380947152,144.96687115185,Melbourne (CBD)
103914,2019,White Lane by Food & Desire,"Level 2, 31 Flinders Lane MELBOURNE 3000",250,-37.81489767993339,144.97329295039998,Melbourne (CBD)
101216,2019,The Croft Institute,21-25 Croft Alley MELBOURNE 3000,250,-37.81206333412739,144.9690874996,Melbourne (CBD)
102596,2019,Sister Bella,9 Drewery Place MELBOURNE 3000,80,-37.81135526921891,144.96381670235,Melbourne (CBD)
110862,2019,Metropolitan Hotel,42 Courtney Street NORTH MELBOURNE 3051,100,-37.80143001585,144.95409885643846,North Melbourne
110473,2019,The Backlot Studios,65-71 Haig Street SOUTHBANK VIC 3006,78,-37.827885359350006,144.956556491421,Southbank
604125,2019,Mama Rumaan,"Shed 9, Part  Harbour Esplanade DOCKLANDS 3008",60,-37.81648918185,144.9436688253851,Docklands
101236,2021,Angel Music Bar,12 Bourke Street MELBOURNE VIC 3000,125,-37.81124810433032,144.97250851245002,Melbourne (CBD)
573333,2023,Transport Hotel,"Tenancy 29, Ground 2 Swanston Street MELBOURNE VIC 3000",500,-37.817777826050005,144.96994164279243,Melbourne (CBD)
573333,2023,Transit Rooftop Bar,"Tenancy 29, Level 2 2 Swanston Street MELBOURNE VIC 3000",200,-37.817777826050005,144.96994164279243,Melbourne (CBD)
105294,2023,State Of Grace,"Basement , Ground & Rooftop 27 King Street MELBOURNE VIC 3000",245,-37.81975555235,144.95694857715296,Melbourne (CBD)
104020,2023,Forum Theatre Bar,Part Ground 150-162 Flinders Street MELBOURNE VIC 3000,1500,-37.81648558712138,144.9693864777,Melbourne (CBD)
105948,2023,Saint & Rogue,582-584 Little Collins Street MELBOURNE VIC 3000,300,-37.81741895875304,144.9553519104,Melbourne (CBD)
105392,2023,The King Hotel,Part Ground 120 King Street MELBOURNE VIC 3000,500,-37.81703244725573,144.95640730085,Melbourne (CBD)
101113,2023,Tokyo Hustle,Level 2 59-63 Bourke Street MELBOURNE VIC 3000,150,-37.81212342700134,144.9715655659,Melbourne (CBD)
503031,2023,Loop Project Space & Bar,Ground 19-23 Meyers Place MELBOURNE VIC 3000,152,-37.812152294499995,144.97210850771285,Melbourne (CBD)
105700,2023,Whitehart,Rear 359 Lonsdale Street MELBOURNE VIC 3000,200,-37.81275160036885,144.96187567925,Melbourne (CBD)
109292,2023,Dodee Bbq,Level 1 243-249 Swanston Street MELBOURNE VIC 3000,300,-37.8123009589,144.9647362546334,Melbourne (CBD)
109392,2023,Rooftop Bar,"Unit S15, Level 7 252 Swanston Street MELBOURNE VIC 3000",200,-37.81199286335,144.965271426409,Melbourne (CBD)
103207,2023,The Meeting Place,"Gnd, Bmt & Level 2 315-321 Elizabeth Street MELBOURNE VIC 3000",250,-37.81122099959329,144.9614594138,Melbourne (CBD)
104086,2023,Patsys Melbourne,211-213 Franklin Street MELBOURNE VIC 3000,56,-37.80968258858312,144.9578403302,Melbourne (CBD)
108202,2023,Capitano,Ground 421 Rathdowne Street CARLTON VIC 3053,100,-37.7965204303913,144.97042686285,Carlton
109842,2023,Central Club Hotel,240-248 Victoria Street NORTH MELBOURNE VIC 3051,150,-37.80591122515,144.9581226029875,North Melbourne
109843,2023,The Last Chance Rock & Roll Bar,238 Victoria Street MELBOURNE VIC 3000,180,-37.80593323695,144.95858732700793,North Melbourne
598987,2023,Ponyfish Island,Kiosk Evan Walker Bridge SOUTHBANK VIC 3006,150,-37.81983184253183,144.96506466805,Southbank
110477,2023,The Pub at Crown,Part Casino 8 Whiteman Street SOUTHBANK VIC 3006,650,-37.8231615915,144.95833415319856,Southbank
102143,2003,Australia On Collins Bar,"Shop 121, Basement , 260 Collins Street MELBOURNE 3000",11,-37.81541503501324,144.96491857864146,Melbourne (CBD)
104662,2017,Nieuw Amsterdam,"Unit 1, 106-112 Hardware Street MELBOURNE 3000",200,-37.8121363622,144.96068072411532,Melbourne (CBD)
103272,2013,City Mic Bar Karaoke,642-644 Elizabeth Street MELBOURNE 3000,70,-37.80328698225,144.95861439894244,Carlton
106019,2021,Floyd's Bar,Restaurant Level 2 399 Little Lonsdale Street MELBOURNE VIC 3000,786,-37.81204551781832,144.96013610345,Melbourne (CBD)
110655,2023,Riverland Bar,"Vault 1-12 & 13A-13B, 1-13B Princes Walk MELBOURNE VIC 3000",300,-37.81867874765,144.96865384918814,Melbourne (CBD)
105401,2023,Tramp Bar,Basement 20 King Street MELBOURNE VIC 3000,260,-37.8197759733,144.9577137804946,Melbourne (CBD)
103954,2023,Yarra Falls,"Shop 3, 387 Flinders Lane MELBOURNE VIC 3000",33,-37.81825089919776,144.9613890915,Melbourne (CBD)
103950,2023,Bartronica,Basement 335 Flinders Lane MELBOURNE VIC 3000,200,-37.81784716661798,144.96322586075,Melbourne (CBD)
104003,2023,Candela Nuevo,Suite 1201 & Part Rooftop 2 Queen Street MELBOURNE VIC 3000,300,-37.8185876429,144.96271041415488,Melbourne (CBD)
103592,2023,The Fair Trader Cafe,Part Ground 11 Exhibition Street MELBOURNE VIC 3000,118,-37.815461267220016,144.9717264012,Melbourne (CBD)
106436,2023,Oak and Vine,"Unit 1R-2R, Ground 60 Market Street MELBOURNE VIC 3000",370,-37.817777314249994,144.9608187218783,Melbourne (CBD)
105936,2023,Dikstein's Corner Bar,433 Little Collins Street MELBOURNE VIC 3000,145,-37.816313871331374,144.96034180549998,Melbourne (CBD)
108065,2023,GG EZ Bar,Basement 95 Queen Street MELBOURNE VIC 3000,167,-37.8163780027,144.96097442470295,Melbourne (CBD)
105929,2023,Maniax Axe Throwing Melbourne CBD,Gnd & Bmt 121 Elizabeth Street MELBOURNE VIC 3000,300,-37.815577516659154,144.96330054055,Melbourne (CBD)
105919,2023,Fika Island,Part Ground & Level 1-2 267 Little Collins Street MELBOURNE VIC 3000,190,-37.814831977068074,144.9656017104,Melbourne (CBD)
109392,2023,Cookie,"Unit S2, Level 1 252 Swanston Street MELBOURNE VIC 3000",300,-37.81199286335,144.965271426409,Melbourne (CBD)
109436,2023,Section 8 Bar,27-29 Tattersalls Lane MELBOURNE VIC 3000,100,-37.8117616219,144.96538955066575,Melbourne (CBD)
105723,2023,Hwayo,19 Healeys Lane MELBOURNE VIC 3000,59,-37.81374534650281,144.95558460935,Melbourne (CBD)
109318,2023,The Oxford Scholar Hotel,Oxford Scholar Hotel 427 Swanston Street MELBOURNE VIC 3000,600,-37.808263981964075,144.9626891397,Melbourne (CBD)
105636,2023,The Leveson,The Leveson 46-50 Leveson Street NORTH MELBOURNE VIC 3051,400,-37.803700183450005,144.95145909472402,North Melbourne
640947,2023,Kingpin Crown,"Shop 120, Gnd & Mezz 27 Whiteman Street SOUTHBANK VIC 3006",347,-37.82540402895,144.95844221541506,Southbank
108845,2023,Gaylord Indian Restaurant,Restaurant 33 Spencer Street DOCKLANDS VIC 3008,199,-37.82017729951458,144.95420016165,Docklands
573400,2023,Peppers Docklands Hotel,681 La Trobe Street DOCKLANDS VIC 3008,25,-37.8148999005,144.94749263943112,Docklands
560004,2023,Karizma,28 Newquay Promenade DOCKLANDS VIC 3008,321,-37.81436129585,144.94217044997197,Docklands
575820,2012,Blvd Bar,"Shop 7, 3-9 Freshwater Place SOUTHBANK 3006",562,-37.82171509275,144.96218258375137,Southbank
108965,2016,The Savoy Tavern,677 Spencer Street MELBOURNE 3000,594,-37.817391041984095,144.9537615134419,Melbourne (CBD)
103951,2017,Bull And Bear Tavern,347 Flinders Lane MELBOURNE 3000,415,-37.81782339018272,144.96303102085,Melbourne (CBD)
103923,2023,Bar Bambi,Basement 103 Flinders Lane MELBOURNE VIC 3000,200,-37.81556721749156,144.97096432815,Melbourne (CBD)
574438,2023,Eau-de-Vie,Rear 88 Flinders Street MELBOURNE VIC 3000,150,-37.815948369203376,144.97168700995002,Melbourne (CBD)
103174,2023,Fiftyfive,Basement 55 Elizabeth Street MELBOURNE VIC 3000,88,-37.8169723947,144.96412997115252,Melbourne (CBD)
105933,2023,The Irish Times,Gnd & Flr1 427 Little Collins Street MELBOURNE VIC 3000,170,-37.81625436476561,144.9605354565,Melbourne (CBD)
102161,2023,The Next Hotel Melbourne,103 Little Collins Street MELBOURNE VIC 3000,321,-37.81363930815,144.9706863215771,Melbourne (CBD)
101130,2023,The Carlton Hotel,"Levels 1,2 & 4 193-199 Bourke Street MELBOURNE VIC 3000",366,-37.81320441548179,144.9676457082,Melbourne (CBD)
105675,2023,Seamstress,113 Lonsdale Street MELBOURNE VIC 3000,160,-37.8105653381264,144.9690110808,Melbourne (CBD)
107987,2015,Banter Wine Bar,"Ground , 562 Queensberry Street NORTH MELBOURNE 3051",50,-37.802718662022784,144.94871248665,North Melbourne
106435,2016,The Trust,"Unit 1, 29 Market Street MELBOURNE 3000",350,-37.818646932212395,144.96042989133713,Melbourne (CBD)
105934,2016,Cafe De Tuscany,429 Little Collins Street MELBOURNE 3000,117,-37.816279944614735,144.9604614374315,Melbourne (CBD)
108977,2019,HiHou,"Level 1, 1 Spring Street MELBOURNE 3000",80,-37.814545339350005,144.97410115885282,Melbourne (CBD)
101218,2019,Fireflies Club,"Level 1, 118-122 Bourke Street MELBOURNE 3000",72,-37.81207458095632,144.96954824555002,Melbourne (CBD)
103993,2020,Waterside Hotel,Waterside Hotel 508-514 Flinders Street MELBOURNE VIC 3000,983,-37.82016599807918,144.9571504476,Melbourne (CBD)
104824,2021,Highlander Bar,11A Highlander Lane MELBOURNE VIC 3000,202,-37.81970313945506,144.95797023355,Melbourne (CBD)
109315,2010,Bunker Lounge Bar,"Unit 1, Basement , 407 Swanston Street MELBOURNE 3000",92,-37.8089556346,144.9631826685038,Melbourne (CBD)
101152,2012,High Fidelity,"Part Ground , 461 Bourke Street MELBOURNE 3000",500,-37.81549193254675,144.96017288029998,Melbourne (CBD)
102118,2016,Paloma,"Unit 4, Ground , 480 Collins Street MELBOURNE 3000",80,-37.817651578674486,144.95796258952458,Melbourne (CBD)
108991,2016,Elm's Family Hotel,Part 267-271 Spring Street MELBOURNE 3000,200,-37.808610073043155,144.97145390976615,Melbourne (CBD)
108642,2016,Commodity Cafe,"Part Ground , 499 St Kilda Road MELBOURNE 3004",150,-37.84331889873595,144.97908599467,Melbourne (Remainder)
102198,2019,Playground,"Basement , 22-26 Corrs Lane MELBOURNE 3000",50,-37.81099753385,144.968324247882,Melbourne (CBD)
101180,2023,The Douglas Club,472 Bourke Street MELBOURNE VIC 3000,50,-37.81486039782858,144.9595996598,Melbourne (CBD)
101206,2023,Heroes Bar,188 Bourke Street MELBOURNE VIC 3000,302,-37.81269719786064,144.9676138651,Melbourne (CBD)
101214,2023,FM Karaoke Bar,Pt Gnd & Levels 1-2 146 Bourke Street MELBOURNE VIC 3000,100,-37.812354270077144,144.96874244775,Melbourne (CBD)
105875,2023,Beneath Driver Lane,Basement 318 Little Bourke Street MELBOURNE VIC 3000,118,-37.81292588925007,144.96312748625002,Melbourne (CBD)
109952,2023,Manchuria,Level 1 7-9 Waratah Place MELBOURNE VIC 3000,80,-37.8116248871,144.96699031789075,Melbourne (CBD)
103507,2023,The Courthouse Hotel North Melbourne,Court House Hotel 86-90 Errol Street NORTH MELBOURNE VIC 3051,50,-37.802877740149995,144.94995536554424,North Melbourne
109643,2023,Life's Too Short Bar,"Shop 3, 166 Albert Street EAST MELBOURNE VIC 3002",40,-37.81004732904999,144.9856242014758,East Melbourne
110477,2023,Groove Live Bar and Terrace,"Shop 71, Ground 8 Whiteman Street SOUTHBANK VIC 3006",600,-37.8231615915,144.95833415319856,Southbank
